$GPGGA,192520.244,1555.118,S,00542.705,W,1,12,1.0,0.0,M,0.0,M,,*63
$GPGSA,A,3,01,02,03,04,05,06,07,08,09,10,11,12,1.0,1.0,1.0*30
$GPRMC,192520.244,A,1555.118,S,00542.705,W,518.4,326.5,310722,000.0,W*78
$GPGGA,192521.244,1554.997,S,00542.786,W,1,12,1.0,0.0,M,0.0,M,,*67
$GPGSA,A,3,01,02,03,04,05,06,07,08,09,10,11,12,1.0,1.0,1.0*30
$GPRMC,192521.244,A,1554.997,S,00542.786,W,346.3,352.3,310722,000.0,W*73
$GPGGA,192522.244,1554.902,S,00542.799,W,1,12,1.0,0.0,M,0.0,M,,*66
$GPGSA,A,3,01,02,03,04,05,06,07,08,09,10,11,12,1.0,1.0,1.0*30
$GPRMC,192522.244,A,1554.902,S,00542.799,W,21879.4,349.9,310722,000.0,W*71
$GPGGA,192523.244,1548.916,S,00543.870,W,1,12,1.0,0.0,M,0.0,M,,*66
$GPGSA,A,3,01,02,03,04,05,06,07,08,09,10,11,12,1.0,1.0,1.0*30
$GPRMC,192523.244,A,1548.916,S,00543.870,W,734863.7,312.8,310722,000.0,W*45
$GPGGA,192524.244,1327.913,S,00816.244,W,1,12,1.0,0.0,M,0.0,M,,*6B
$GPGSA,A,3,01,02,03,04,05,06,07,08,09,10,11,12,1.0,1.0,1.0*30
$GPRMC,192524.244,A,1327.913,S,00816.244,W,759892.4,310.1,310722,000.0,W*45
$GPGGA,192525.244,1110.105,S,01059.720,W,1,12,1.0,0.0,M,0.0,M,,*66
$GPGSA,A,3,01,02,03,04,05,06,07,08,09,10,11,12,1.0,1.0,1.0*30
$GPRMC,192525.244,A,1110.105,S,01059.720,W,457119.6,296.9,310722,000.0,W*4A
$GPGGA,192526.244,1011.808,S,01254.417,W,1,12,1.0,0.0,M,0.0,M,,*69
$GPGSA,A,3,01,02,03,04,05,06,07,08,09,10,11,12,1.0,1.0,1.0*30
$GPRMC,192526.244,A,1011.808,S,01254.417,W,291364.8,315.9,310722,000.0,W*45
$GPGGA,192527.244,0913.333,S,01351.107,W,1,12,1.0,0.0,M,0.0,M,,*61
$GPGSA,A,3,01,02,03,04,05,06,07,08,09,10,11,12,1.0,1.0,1.0*30
$GPRMC,192527.244,A,0913.333,S,01351.107,W,290002.5,335.1,310722,000.0,W*48
$GPGGA,192528.244,0800.179,S,01425.094,W,1,12,1.0,0.0,M,0.0,M,,*6E
$GPGSA,A,3,01,02,03,04,05,06,07,08,09,10,11,12,1.0,1.0,1.0*30
$GPRMC,192528.244,A,0800.179,S,01425.094,W,11698.2,352.4,310722,000.0,W*7A
$GPGGA,192529.244,0756.960,S,01425.524,W,1,12,1.0,0.0,M,0.0,M,,*6D
$GPGSA,A,3,01,02,03,04,05,06,07,08,09,10,11,12,1.0,1.0,1.0*30
$GPRMC,192529.244,A,0756.960,S,01425.524,W,3090.4,006.9,310722,000.0,W*4D
$GPGGA,192530.244,0756.108,S,01425.421,W,1,12,1.0,0.0,M,0.0,M,,*67
$GPGSA,A,3,01,02,03,04,05,06,07,08,09,10,11,12,1.0,1.0,1.0*30
$GPRMC,192530.244,A,0756.108,S,01425.421,W,1993.7,020.1,310722,000.0,W*40
$GPGGA,192531.244,0755.588,S,01425.230,W,1,12,1.0,0.0,M,0.0,M,,*6F
$GPGSA,A,3,01,02,03,04,05,06,07,08,09,10,11,12,1.0,1.0,1.0*30
$GPRMC,192531.244,A,0755.588,S,01425.230,W,927.0,050.9,310722,000.0,W*7E
$GPGGA,192532.244,0755.425,S,01425.029,W,1,12,1.0,0.0,M,0.0,M,,*60
$GPGSA,A,3,01,02,03,04,05,06,07,08,09,10,11,12,1.0,1.0,1.0*30
$GPRMC,192532.244,A,0755.425,S,01425.029,W,329.1,093.6,310722,000.0,W*74
$GPGGA,192533.244,0755.430,S,01424.937,W,1,12,1.0,0.0,M,0.0,M,,*62
$GPGSA,A,3,01,02,03,04,05,06,07,08,09,10,11,12,1.0,1.0,1.0*30
$GPRMC,192533.244,A,0755.430,S,01424.937,W,122.3,145.5,310722,000.0,W*74
$GPGGA,192534.244,0755.458,S,01424.918,W,1,12,1.0,0.0,M,0.0,M,,*66
$GPGSA,A,3,01,02,03,04,05,06,07,08,09,10,11,12,1.0,1.0,1.0*30
$GPRMC,192534.244,A,0755.458,S,01424.918,W,231.3,124.2,310722,000.0,W*71
$GPGGA,192535.244,0755.495,S,01424.864,W,1,12,1.0,0.0,M,0.0,M,,*6C
$GPGSA,A,3,01,02,03,04,05,06,07,08,09,10,11,12,1.0,1.0,1.0*30
$GPRMC,192535.244,A,0755.495,S,01424.864,W,069.1,105.3,310722,000.0,W*74
$GPGGA,192536.244,0755.500,S,01424.846,W,1,12,1.0,0.0,M,0.0,M,,*62
$GPGSA,A,3,01,02,03,04,05,06,07,08,09,10,11,12,1.0,1.0,1.0*30
$GPRMC,192536.244,A,0755.500,S,01424.846,W,037.0,060.5,310722,000.0,W*74
$GPGGA,192537.244,0755.495,S,01424.837,W,1,12,1.0,0.0,M,0.0,M,,*68
$GPGSA,A,3,01,02,03,04,05,06,07,08,09,10,11,12,1.0,1.0,1.0*30
$GPRMC,192537.244,A,0755.495,S,01424.837,W,046.8,348.6,310722,000.0,W*7A
$GPGGA,192538.244,0755.482,S,01424.839,W,1,12,1.0,0.0,M,0.0,M,,*6F
$GPGSA,A,3,01,02,03,04,05,06,07,08,09,10,11,12,1.0,1.0,1.0*30
$GPRMC,192538.244,A,0755.482,S,01424.839,W,139.7,297.2,310722,000.0,W*7C
$GPGGA,192539.244,0755.464,S,01424.874,W,1,12,1.0,0.0,M,0.0,M,,*6F
$GPGSA,A,3,01,02,03,04,05,06,07,08,09,10,11,12,1.0,1.0,1.0*30
$GPRMC,192539.244,A,0755.464,S,01424.874,W,130.0,327.7,310722,000.0,W*7D
$GPGGA,192540.244,0755.434,S,01424.893,W,1,12,1.0,0.0,M,0.0,M,,*6D
$GPGSA,A,3,01,02,03,04,05,06,07,08,09,10,11,12,1.0,1.0,1.0*30
$GPRMC,192540.244,A,0755.434,S,01424.893,W,264.2,358.5,310722,000.0,W*75
$GPGGA,192541.244,0755.360,S,01424.895,W,1,12,1.0,0.0,M,0.0,M,,*6C
$GPGSA,A,3,01,02,03,04,05,06,07,08,09,10,11,12,1.0,1.0,1.0*30
$GPRMC,192541.244,A,0755.360,S,01424.895,W,271.5,029.6,310722,000.0,W*71
$GPGGA,192542.244,0755.295,S,01424.858,W,1,12,1.0,0.0,M,0.0,M,,*65
$GPGSA,A,3,01,02,03,04,05,06,07,08,09,10,11,12,1.0,1.0,1.0*30
$GPRMC,192542.244,A,0755.295,S,01424.858,W,2103.3,009.3,310722,000.0,W*4D
$GPGGA,192543.244,0754.718,S,01424.764,W,1,12,1.0,0.0,M,0.0,M,,*65
$GPGSA,A,3,01,02,03,04,05,06,07,08,09,10,11,12,1.0,1.0,1.0*30
$GPRMC,192543.244,A,0754.718,S,01424.764,W,2413.5,014.9,310722,000.0,W*49
$GPGGA,192544.244,0754.070,S,01424.591,W,1,12,1.0,0.0,M,0.0,M,,*63
$GPGSA,A,3,01,02,03,04,05,06,07,08,09,10,11,12,1.0,1.0,1.0*30
$GPRMC,192544.244,A,0754.070,S,01424.591,W,10735.9,020.1,310722,000.0,W*78
$GPGGA,192545.244,0751.268,S,01423.567,W,1,12,1.0,0.0,M,0.0,M,,*62
$GPGSA,A,3,01,02,03,04,05,06,07,08,09,10,11,12,1.0,1.0,1.0*30
$GPRMC,192545.244,A,0751.268,S,01423.567,W,362479.4,031.0,310722,000.0,W*48
$GPGGA,192546.244,0624.801,S,01331.705,W,1,12,1.0,0.0,M,0.0,M,,*65
$GPGSA,A,3,01,02,03,04,05,06,07,08,09,10,11,12,1.0,1.0,1.0*30
$GPRMC,192546.244,A,0624.801,S,01331.705,W,798660.5,040.4,310722,000.0,W*47
$GPGGA,192547.244,0335.578,S,01107.914,W,1,12,1.0,0.0,M,0.0,M,,*6B
$GPGSA,A,3,01,02,03,04,05,06,07,08,09,10,11,12,1.0,1.0,1.0*30
$GPRMC,192547.244,A,0335.578,S,01107.914,W,609118.5,056.5,310722,000.0,W*4E
$GPGGA,192548.244,0202.090,S,00846.849,W,1,12,1.0,0.0,M,0.0,M,,*66
$GPGSA,A,3,01,02,03,04,05,06,07,08,09,10,11,12,1.0,1.0,1.0*30
$GPRMC,192548.244,A,0202.090,S,00846.849,W,444998.9,039.8,310722,000.0,W*40
$GPGGA,192549.244,0027.193,S,00727.748,W,1,12,1.0,0.0,M,0.0,M,,*66
$GPGSA,A,3,01,02,03,04,05,06,07,08,09,10,11,12,1.0,1.0,1.0*30
$GPRMC,192549.244,A,0027.193,S,00727.748,W,1008354.2,037.5,310722,000.0,W*7F
$GPGGA,192550.244,0314.980,N,00437.408,W,1,12,1.0,0.0,M,0.0,M,,*7F
$GPGSA,A,3,01,02,03,04,05,06,07,08,09,10,11,12,1.0,1.0,1.0*30
$GPRMC,192550.244,A,0314.980,N,00437.408,W,142515.8,003.8,310722,000.0,W*5B
$GPGGA,192551.244,0354.454,N,00434.771,W,1,12,1.0,0.0,M,0.0,M,,*70
$GPGSA,A,3,01,02,03,04,05,06,07,08,09,10,11,12,1.0,1.0,1.0*30
$GPRMC,192551.244,A,0354.454,N,00434.771,W,166182.9,312.9,310722,000.0,W*5B
$GPGGA,192552.244,0425.923,N,00508.591,W,1,12,1.0,0.0,M,0.0,M,,*7D
$GPGSA,A,3,01,02,03,04,05,06,07,08,09,10,11,12,1.0,1.0,1.0*30
$GPRMC,192552.244,A,0425.923,N,00508.591,W,96736.4,274.2,310722,000.0,W*66
$GPGGA,192553.244,0427.895,N,00535.452,W,1,12,1.0,0.0,M,0.0,M,,*72
$GPGSA,A,3,01,02,03,04,05,06,07,08,09,10,11,12,1.0,1.0,1.0*30
$GPRMC,192553.244,A,0427.895,N,00535.452,W,85819.7,270.0,310722,000.0,W*6C
$GPGGA,192554.244,0427.895,N,00559.348,W,1,12,1.0,0.0,M,0.0,M,,*73
$GPGSA,A,3,01,02,03,04,05,06,07,08,09,10,11,12,1.0,1.0,1.0*30
$GPRMC,192554.244,A,0427.895,N,00559.348,W,120412.3,286.3,310722,000.0,W*5A
$GPGGA,192555.244,0437.287,N,00631.527,W,1,12,1.0,0.0,M,0.0,M,,*78
$GPGSA,A,3,01,02,03,04,05,06,07,08,09,10,11,12,1.0,1.0,1.0*30
$GPRMC,192555.244,A,0437.287,N,00631.527,W,26148.6,319.8,310722,000.0,W*65
$GPGGA,192556.244,0442.838,N,00636.219,W,1,12,1.0,0.0,M,0.0,M,,*7A
$GPGSA,A,3,01,02,03,04,05,06,07,08,09,10,11,12,1.0,1.0,1.0*30
$GPRMC,192556.244,A,0442.838,N,00636.219,W,1723.5,009.3,310722,000.0,W*53
$GPGGA,192557.244,0443.310,N,00636.142,W,1,12,1.0,0.0,M,0.0,M,,*76
$GPGSA,A,3,01,02,03,04,05,06,07,08,09,10,11,12,1.0,1.0,1.0*30
$GPRMC,192557.244,A,0443.310,N,00636.142,W,1587.1,351.9,310722,000.0,W*53
$GPGGA,192558.244,0443.747,N,00636.204,W,1,12,1.0,0.0,M,0.0,M,,*7E
$GPGSA,A,3,01,02,03,04,05,06,07,08,09,10,11,12,1.0,1.0,1.0*30
$GPRMC,192558.244,A,0443.747,N,00636.204,W,957.9,319.8,310722,000.0,W*6E
$GPGGA,192559.244,0443.950,N,00636.376,W,1,12,1.0,0.0,M,0.0,M,,*73
$GPGSA,A,3,01,02,03,04,05,06,07,08,09,10,11,12,1.0,1.0,1.0*30
$GPRMC,192559.244,A,0443.950,N,00636.376,W,1410.1,334.7,310722,000.0,W*54
$GPGGA,192600.244,0444.304,N,00636.543,W,1,12,1.0,0.0,M,0.0,M,,*70
$GPGSA,A,3,01,02,03,04,05,06,07,08,09,10,11,12,1.0,1.0,1.0*30
$GPRMC,192600.244,A,0444.304,N,00636.543,W,284.8,324.2,310722,000.0,W*60
$GPGGA,192601.244,0444.368,N,00636.590,W,1,12,1.0,0.0,M,0.0,M,,*75
$GPGSA,A,3,01,02,03,04,05,06,07,08,09,10,11,12,1.0,1.0,1.0*30
$GPRMC,192601.244,A,0444.368,N,00636.590,W,602.9,260.3,310722,000.0,W*6E
$GPGGA,192602.244,0444.340,N,00636.755,W,1,12,1.0,0.0,M,0.0,M,,*77
$GPGSA,A,3,01,02,03,04,05,06,07,08,09,10,11,12,1.0,1.0,1.0*30
$GPRMC,192602.244,A,0444.340,N,00636.755,W,492.1,275.4,310722,000.0,W*6C
$GPGGA,192603.244,0444.353,N,00636.892,W,1,12,1.0,0.0,M,0.0,M,,*70
$GPGSA,A,3,01,02,03,04,05,06,07,08,09,10,11,12,1.0,1.0,1.0*30
$GPRMC,192603.244,A,0444.353,N,00636.892,W,1013.7,029.0,310722,000.0,W*5E
$GPGGA,192604.244,0444.599,N,00636.755,W,1,12,1.0,0.0,M,0.0,M,,*73
$GPGSA,A,3,01,02,03,04,05,06,07,08,09,10,11,12,1.0,1.0,1.0*30
$GPRMC,192604.244,A,0444.599,N,00636.755,W,196.1,008.2,310722,000.0,W*67
$GPGGA,192605.244,0444.653,N,00636.748,W,1,12,1.0,0.0,M,0.0,M,,*7B
$GPGSA,A,3,01,02,03,04,05,06,07,08,09,10,11,12,1.0,1.0,1.0*30
$GPRMC,192605.244,A,0444.653,N,00636.748,W,183.0,314.9,310722,000.0,W*6F
$GPGGA,192606.244,0444.689,N,00636.784,W,1,12,1.0,0.0,M,0.0,M,,*7F
$GPGSA,A,3,01,02,03,04,05,06,07,08,09,10,11,12,1.0,1.0,1.0*30
$GPRMC,192606.244,A,0444.689,N,00636.784,W,203.0,240.0,310722,000.0,W*69
$GPGGA,192607.244,0444.660,N,00636.832,W,1,12,1.0,0.0,M,0.0,M,,*7B
$GPGSA,A,3,01,02,03,04,05,06,07,08,09,10,11,12,1.0,1.0,1.0*30
$GPRMC,192607.244,A,0444.660,N,00636.832,W,328.3,237.7,310722,000.0,W*61
$GPGGA,192608.244,0444.612,N,00636.910,W,1,12,1.0,0.0,M,0.0,M,,*70
$GPGSA,A,3,01,02,03,04,05,06,07,08,09,10,11,12,1.0,1.0,1.0*30
$GPRMC,192608.244,A,0444.612,N,00636.910,W,438.5,214.8,310722,000.0,W*64
$GPGGA,192609.244,0444.512,N,00636.979,W,1,12,1.0,0.0,M,0.0,M,,*7D
$GPGSA,A,3,01,02,03,04,05,06,07,08,09,10,11,12,1.0,1.0,1.0*30
$GPRMC,192609.244,A,0444.512,N,00636.979,W,566.9,204.1,310722,000.0,W*67
$GPGGA,192610.244,0444.368,N,00637.044,W,1,12,1.0,0.0,M,0.0,M,,*78
$GPGSA,A,3,01,02,03,04,05,06,07,08,09,10,11,12,1.0,1.0,1.0*30
$GPRMC,192610.244,A,0444.368,N,00637.044,W,348.0,163.0,310722,000.0,W*62
$GPGGA,192611.244,0444.276,N,00637.015,W,1,12,1.0,0.0,M,0.0,M,,*73
$GPGSA,A,3,01,02,03,04,05,06,07,08,09,10,11,12,1.0,1.0,1.0*30
$GPRMC,192611.244,A,0444.276,N,00637.015,W,545.5,091.0,310722,000.0,W*6B
$GPGGA,192612.244,0444.273,N,00636.863,W,1,12,1.0,0.0,M,0.0,M,,*7D
$GPGSA,A,3,01,02,03,04,05,06,07,08,09,10,11,12,1.0,1.0,1.0*30
$GPRMC,192612.244,A,0444.273,N,00636.863,W,748.3,117.1,310722,000.0,W*62
$GPGGA,192613.244,0444.178,N,00636.678,W,1,12,1.0,0.0,M,0.0,M,,*70
$GPGSA,A,3,01,02,03,04,05,06,07,08,09,10,11,12,1.0,1.0,1.0*30
$GPRMC,192613.244,A,0444.178,N,00636.678,W,1756.2,201.4,310722,000.0,W*51
$GPGGA,192614.244,0443.724,N,00636.856,W,1,12,1.0,0.0,M,0.0,M,,*7D
$GPGSA,A,3,01,02,03,04,05,06,07,08,09,10,11,12,1.0,1.0,1.0*30
$GPRMC,192614.244,A,0443.724,N,00636.856,W,2642.6,234.3,310722,000.0,W*5E
$GPGGA,192615.244,0443.295,N,00637.453,W,1,12,1.0,0.0,M,0.0,M,,*7B
$GPGSA,A,3,01,02,03,04,05,06,07,08,09,10,11,12,1.0,1.0,1.0*30
$GPRMC,192615.244,A,0443.295,N,00637.453,W,20817.1,239.4,310722,000.0,W*6B
$GPGGA,192616.244,0440.349,N,00642.441,W,1,12,1.0,0.0,M,0.0,M,,*7A
$GPGSA,A,3,01,02,03,04,05,06,07,08,09,10,11,12,1.0,1.0,1.0*30
$GPRMC,192616.244,A,0440.349,N,00642.441,W,19412.1,226.8,310722,000.0,W*6B
$GPGGA,192617.244,0436.653,N,00646.375,W,1,12,1.0,0.0,M,0.0,M,,*70
$GPGSA,A,3,01,02,03,04,05,06,07,08,09,10,11,12,1.0,1.0,1.0*30
$GPRMC,192617.244,A,0436.653,N,00646.375,W,55154.1,233.5,310722,000.0,W*67
$GPGGA,192618.244,0427.521,N,00658.703,W,1,12,1.0,0.0,M,0.0,M,,*73
$GPGSA,A,3,01,02,03,04,05,06,07,08,09,10,11,12,1.0,1.0,1.0*30
$GPRMC,192618.244,A,0427.521,N,00658.703,W,189783.5,249.0,310722,000.0,W*54
$GPGGA,192619.244,0408.623,N,00748.018,W,1,12,1.0,0.0,M,0.0,M,,*73
$GPGSA,A,3,01,02,03,04,05,06,07,08,09,10,11,12,1.0,1.0,1.0*30
$GPRMC,192619.244,A,0408.623,N,00748.018,W,170672.0,272.4,310722,000.0,W*54
$GPGGA,192620.244,0410.596,N,00835.479,W,1,12,1.0,0.0,M,0.0,M,,*7B
$GPGSA,A,3,01,02,03,04,05,06,07,08,09,10,11,12,1.0,1.0,1.0*30
$GPRMC,192620.244,A,0410.596,N,00835.479,W,429832.1,305.6,310722,000.0,W*5D
$GPGGA,192621.244,0520.227,N,01012.708,W,1,12,1.0,0.0,M,0.0,M,,*7C
$GPGSA,A,3,01,02,03,04,05,06,07,08,09,10,11,12,1.0,1.0,1.0*30
$GPRMC,192621.244,A,0520.227,N,01012.708,W,178270.8,308.4,310722,000.0,W*51
$GPGGA,192622.244,0551.061,N,01051.599,W,1,12,1.0,0.0,M,0.0,M,,*74
$GPGSA,A,3,01,02,03,04,05,06,07,08,09,10,11,12,1.0,1.0,1.0*30
$GPRMC,192622.244,A,0551.061,N,01051.599,W,485751.0,291.1,310722,000.0,W*54
$GPGGA,192623.244,0639.752,N,01258.095,W,1,12,1.0,0.0,M,0.0,M,,*7D
$GPGSA,A,3,01,02,03,04,05,06,07,08,09,10,11,12,1.0,1.0,1.0*30
$GPRMC,192623.244,A,0639.752,N,01258.095,W,458222.7,317.1,310722,000.0,W*54
$GPGGA,192624.244,0813.218,N,01425.107,W,1,12,1.0,0.0,M,0.0,M,,*71
$GPGSA,A,3,01,02,03,04,05,06,07,08,09,10,11,12,1.0,1.0,1.0*30
$GPRMC,192624.244,A,0813.218,N,01425.107,W,1042399.8,305.4,310722,000.0,W*6E
$GPGGA,192625.244,1102.450,N,01823.202,W,1,12,1.0,0.0,M,0.0,M,,*7E
$GPGSA,A,3,01,02,03,04,05,06,07,08,09,10,11,12,1.0,1.0,1.0*30
$GPRMC,192625.244,A,1102.450,N,01823.202,W,378447.5,331.7,310722,000.0,W*57
$GPGGA,192626.244,1235.358,N,01913.300,W,1,12,1.0,0.0,M,0.0,M,,*74
$GPGSA,A,3,01,02,03,04,05,06,07,08,09,10,11,12,1.0,1.0,1.0*30
$GPRMC,192626.244,A,1235.358,N,01913.300,W,423637.1,300.9,310722,000.0,W*59
$GPGGA,192627.244,1336.991,N,02056.132,W,1,12,1.0,0.0,M,0.0,M,,*70
$GPGSA,A,3,01,02,03,04,05,06,07,08,09,10,11,12,1.0,1.0,1.0*30
$GPRMC,192627.244,A,1336.991,N,02056.132,W,347907.4,300.5,310722,000.0,W*5D
$GPGGA,192628.244,1427.133,N,02221.211,W,1,12,1.0,0.0,M,0.0,M,,*78
$GPGSA,A,3,01,02,03,04,05,06,07,08,09,10,11,12,1.0,1.0,1.0*30
$GPRMC,192628.244,A,1427.133,N,02221.211,W,245128.0,286.4,310722,000.0,W*59
$GPGGA,192629.244,1446.937,N,02328.488,W,1,12,1.0,0.0,M,0.0,M,,*7C
$GPGSA,A,3,01,02,03,04,05,06,07,08,09,10,11,12,1.0,1.0,1.0*30
$GPRMC,192629.244,A,1446.937,N,02328.488,W,18293.5,336.5,310722,000.0,W*6A
$GPGGA,192630.244,1451.617,N,02330.528,W,1,12,1.0,0.0,M,0.0,M,,*7D
$GPGSA,A,3,01,02,03,04,05,06,07,08,09,10,11,12,1.0,1.0,1.0*30
$GPRMC,192630.244,A,1451.617,N,02330.528,W,5473.9,005.4,310722,000.0,W*51
$GPGGA,192631.244,1453.130,N,02330.384,W,1,12,1.0,0.0,M,0.0,M,,*7C
$GPGSA,A,3,01,02,03,04,05,06,07,08,09,10,11,12,1.0,1.0,1.0*30
$GPRMC,192631.244,A,1453.130,N,02330.384,W,3020.6,356.7,310722,000.0,W*5D
$GPGGA,192632.244,1453.967,N,02330.433,W,1,12,1.0,0.0,M,0.0,M,,*7E
$GPGSA,A,3,01,02,03,04,05,06,07,08,09,10,11,12,1.0,1.0,1.0*30
$GPRMC,192632.244,A,1453.967,N,02330.433,W,991.0,350.0,310722,000.0,W*68
$GPGGA,192633.244,1454.238,N,02330.480,W,1,12,1.0,0.0,M,0.0,M,,*71
$GPGSA,A,3,01,02,03,04,05,06,07,08,09,10,11,12,1.0,1.0,1.0*30
$GPRMC,192633.244,A,1454.238,N,02330.480,W,584.0,341.5,310722,000.0,W*6A
$GPGGA,192634.244,1454.393,N,02330.532,W,1,12,1.0,0.0,M,0.0,M,,*7E
$GPGSA,A,3,01,02,03,04,05,06,07,08,09,10,11,12,1.0,1.0,1.0*30
$GPRMC,192634.244,A,1454.393,N,02330.532,W,189.3,023.5,310722,000.0,W*68
$GPGGA,192635.244,1454.441,N,02330.511,W,1,12,1.0,0.0,M,0.0,M,,*76
$GPGSA,A,3,01,02,03,04,05,06,07,08,09,10,11,12,1.0,1.0,1.0*30
$GPRMC,192635.244,A,1454.441,N,02330.511,W,153.3,104.8,310722,000.0,W*6E
$GPGGA,192636.244,1454.430,N,02330.468,W,1,12,1.0,0.0,M,0.0,M,,*7C
$GPGSA,A,3,01,02,03,04,05,06,07,08,09,10,11,12,1.0,1.0,1.0*30
$GPRMC,192636.244,A,1454.430,N,02330.468,W,197.9,166.5,310722,000.0,W*6F
$GPGGA,192637.244,1454.376,N,02330.455,W,1,12,1.0,0.0,M,0.0,M,,*76
$GPGSA,A,3,01,02,03,04,05,06,07,08,09,10,11,12,1.0,1.0,1.0*30
$GPRMC,192637.244,A,1454.376,N,02330.455,W,637.3,167.4,310722,000.0,W*62
$GPGGA,192638.244,1454.203,N,02330.417,W,1,12,1.0,0.0,M,0.0,M,,*7C
$GPGSA,A,3,01,02,03,04,05,06,07,08,09,10,11,12,1.0,1.0,1.0*30
$GPRMC,192638.244,A,1454.203,N,02330.417,W,2426.2,095.1,310722,000.0,W*50
$GPGGA,192639.244,1454.141,N,02329.723,W,1,12,1.0,0.0,M,0.0,M,,*74
$GPGSA,A,3,01,02,03,04,05,06,07,08,09,10,11,12,1.0,1.0,1.0*30
$GPRMC,192639.244,A,1454.141,N,02329.723,W,1118.8,065.6,310722,000.0,W*51
$GPGGA,192640.244,1454.273,N,02329.432,W,1,12,1.0,0.0,M,0.0,M,,*7B
$GPGSA,A,3,01,02,03,04,05,06,07,08,09,10,11,12,1.0,1.0,1.0*30
$GPRMC,192640.244,A,1454.273,N,02329.432,W,2680.6,103.7,310722,000.0,W*55
$GPGGA,192641.244,1454.091,N,02328.685,W,1,12,1.0,0.0,M,0.0,M,,*7B
$GPGSA,A,3,01,02,03,04,05,06,07,08,09,10,11,12,1.0,1.0,1.0*30
$GPRMC,192641.244,A,1454.091,N,02328.685,W,2189.4,073.9,310722,000.0,W*51
$GPGGA,192642.244,1454.265,N,02328.083,W,1,12,1.0,0.0,M,0.0,M,,*71
$GPGSA,A,3,01,02,03,04,05,06,07,08,09,10,11,12,1.0,1.0,1.0*30
$GPRMC,192642.244,A,1454.265,N,02328.083,W,5913.0,035.9,310722,000.0,W*51
$GPGGA,192643.244,1455.610,N,02327.108,W,1,12,1.0,0.0,M,0.0,M,,*7A
$GPGSA,A,3,01,02,03,04,05,06,07,08,09,10,11,12,1.0,1.0,1.0*30
$GPRMC,192643.244,A,1455.610,N,02327.108,W,1595.8,015.5,310722,000.0,W*5A
$GPGGA,192644.244,1456.038,N,02326.990,W,1,12,1.0,0.0,M,0.0,M,,*7A
$GPGSA,A,3,01,02,03,04,05,06,07,08,09,10,11,12,1.0,1.0,1.0*30
$GPRMC,192644.244,A,1456.038,N,02326.990,W,16921.9,034.9,310722,000.0,W*61
$GPGGA,192645.244,1459.931,N,02324.269,W,1,12,1.0,0.0,M,0.0,M,,*7B
$GPGSA,A,3,01,02,03,04,05,06,07,08,09,10,11,12,1.0,1.0,1.0*30
$GPRMC,192645.244,A,1459.931,N,02324.269,W,29206.3,032.0,310722,000.0,W*67
$GPGGA,192646.244,1506.873,N,02319.933,W,1,12,1.0,0.0,M,0.0,M,,*7E
$GPGSA,A,3,01,02,03,04,05,06,07,08,09,10,11,12,1.0,1.0,1.0*30
$GPRMC,192646.244,A,1506.873,N,02319.933,W,39866.3,020.4,310722,000.0,W*68
$GPGGA,192647.244,1517.290,N,02316.060,W,1,12,1.0,0.0,M,0.0,M,,*78
$GPGSA,A,3,01,02,03,04,05,06,07,08,09,10,11,12,1.0,1.0,1.0*30
$GPRMC,192647.244,A,1517.290,N,02316.060,W,143979.4,052.0,310722,000.0,W*5B
$GPGGA,192648.244,1542.460,N,02243.843,W,1,12,1.0,0.0,M,0.0,M,,*76
$GPGSA,A,3,01,02,03,04,05,06,07,08,09,10,11,12,1.0,1.0,1.0*30
$GPRMC,192648.244,A,1542.460,N,02243.843,W,284271.5,035.9,310722,000.0,W*57
$GPGGA,192649.244,1647.254,N,02156.927,W,1,12,1.0,0.0,M,0.0,M,,*74
$GPGSA,A,3,01,02,03,04,05,06,07,08,09,10,11,12,1.0,1.0,1.0*30
$GPRMC,192649.244,A,1647.254,N,02156.927,W,640820.2,020.9,310722,000.0,W*54
$GPGGA,192650.244,1934.448,N,02052.986,W,1,12,1.0,0.0,M,0.0,M,,*72
$GPGSA,A,3,01,02,03,04,05,06,07,08,09,10,11,12,1.0,1.0,1.0*30
$GPRMC,192650.244,A,1934.448,N,02052.986,W,491836.9,012.2,310722,000.0,W*5A
$GPGGA,192651.244,2148.254,N,02023.982,W,1,12,1.0,0.0,M,0.0,M,,*7A
$GPGSA,A,3,01,02,03,04,05,06,07,08,09,10,11,12,1.0,1.0,1.0*30
$GPRMC,192651.244,A,2148.254,N,02023.982,W,786624.1,024.4,310722,000.0,W*51
$GPGGA,192652.244,2509.863,N,01852.513,W,1,12,1.0,0.0,M,0.0,M,,*7F
$GPGSA,A,3,01,02,03,04,05,06,07,08,09,10,11,12,1.0,1.0,1.0*30
$GPRMC,192652.244,A,2509.863,N,01852.513,W,580684.0,045.8,310722,000.0,W*50
$GPGGA,192653.244,2708.195,N,01650.565,W,1,12,1.0,0.0,M,0.0,M,,*70
$GPGSA,A,3,01,02,03,04,05,06,07,08,09,10,11,12,1.0,1.0,1.0*30
$GPRMC,192653.244,A,2708.195,N,01650.565,W,181228.8,038.8,310722,000.0,W*5A
$GPGGA,192654.244,2749.132,N,01617.606,W,1,12,1.0,0.0,M,0.0,M,,*7A
$GPGSA,A,3,01,02,03,04,05,06,07,08,09,10,11,12,1.0,1.0,1.0*30
$GPRMC,192654.244,A,2749.132,N,01617.606,W,71939.8,047.7,310722,000.0,W*62
$GPGGA,192655.244,2803.457,N,01601.857,W,1,12,1.0,0.0,M,0.0,M,,*71
$GPGSA,A,3,01,02,03,04,05,06,07,08,09,10,11,12,1.0,1.0,1.0*30
$GPRMC,192655.244,A,2803.457,N,01601.857,W,32686.2,064.7,310722,000.0,W*6E
$GPGGA,192656.244,2807.746,N,01552.793,W,1,12,1.0,0.0,M,0.0,M,,*77
$GPGSA,A,3,01,02,03,04,05,06,07,08,09,10,11,12,1.0,1.0,1.0*30
$GPRMC,192656.244,A,2807.746,N,01552.793,W,28095.0,067.3,310722,000.0,W*62
$GPGGA,192657.244,2811.088,N,01544.800,W,1,12,1.0,0.0,M,0.0,M,,*76
$GPGSA,A,3,01,02,03,04,05,06,07,08,09,10,11,12,1.0,1.0,1.0*30
$GPRMC,192657.244,A,2811.088,N,01544.800,W,37044.5,091.4,310722,000.0,W*6A
$GPGGA,192658.244,2810.807,N,01533.138,W,1,12,1.0,0.0,M,0.0,M,,*75
$GPGSA,A,3,01,02,03,04,05,06,07,08,09,10,11,12,1.0,1.0,1.0*30
$GPRMC,192658.244,A,2810.807,N,01533.138,W,12175.5,104.1,310722,000.0,W*65
$GPGGA,192659.244,2809.881,N,01529.451,W,1,12,1.0,0.0,M,0.0,M,,*73
$GPGSA,A,3,01,02,03,04,05,06,07,08,09,10,11,12,1.0,1.0,1.0*30
$GPRMC,192659.244,A,2809.881,N,01529.451,W,9269.5,120.3,310722,000.0,W*53
$GPGGA,192700.244,2808.460,N,01527.018,W,1,12,1.0,0.0,M,0.0,M,,*7B
$GPGSA,A,3,01,02,03,04,05,06,07,08,09,10,11,12,1.0,1.0,1.0*30
$GPRMC,192700.244,A,2808.460,N,01527.018,W,1161.6,180.9,310722,000.0,W*5B
$GPGGA,192701.244,2808.137,N,01527.023,W,1,12,1.0,0.0,M,0.0,M,,*75
$GPGSA,A,3,01,02,03,04,05,06,07,08,09,10,11,12,1.0,1.0,1.0*30
$GPRMC,192701.244,A,2808.137,N,01527.023,W,591.0,174.6,310722,000.0,W*6D
$GPGGA,192702.244,2807.974,N,01527.008,W,1,12,1.0,0.0,M,0.0,M,,*7F
$GPGSA,A,3,01,02,03,04,05,06,07,08,09,10,11,12,1.0,1.0,1.0*30
$GPRMC,192702.244,A,2807.974,N,01527.008,W,226.3,165.9,310722,000.0,W*60
$GPGGA,192703.244,2807.913,N,01526.992,W,1,12,1.0,0.0,M,0.0,M,,*74
$GPGSA,A,3,01,02,03,04,05,06,07,08,09,10,11,12,1.0,1.0,1.0*30
$GPRMC,192703.244,A,2807.913,N,01526.992,W,197.0,085.8,310722,000.0,W*6F
$GPGGA,192704.244,2807.917,N,01526.931,W,1,12,1.0,0.0,M,0.0,M,,*7E
$GPGSA,A,3,01,02,03,04,05,06,07,08,09,10,11,12,1.0,1.0,1.0*30
$GPRMC,192704.244,A,2807.917,N,01526.931,W,191.7,043.3,310722,000.0,W*65
$GPGGA,192705.244,2807.958,N,01526.892,W,1,12,1.0,0.0,M,0.0,M,,*7C
$GPGSA,A,3,01,02,03,04,05,06,07,08,09,10,11,12,1.0,1.0,1.0*30
$GPRMC,192705.244,A,2807.958,N,01526.892,W,1052.8,020.8,310722,000.0,W*59
$GPGGA,192706.244,2808.235,N,01526.786,W,1,12,1.0,0.0,M,0.0,M,,*7A
$GPGSA,A,3,01,02,03,04,05,06,07,08,09,10,11,12,1.0,1.0,1.0*30
$GPRMC,192706.244,A,2808.235,N,01526.786,W,2805.2,008.5,310722,000.0,W*5B
$GPGGA,192707.244,2809.007,N,01526.671,W,1,12,1.0,0.0,M,0.0,M,,*70
$GPGSA,A,3,01,02,03,04,05,06,07,08,09,10,11,12,1.0,1.0,1.0*30
$GPRMC,192707.244,A,2809.007,N,01526.671,W,5741.3,339.7,310722,000.0,W*5B
$GPGGA,192708.244,2810.522,N,01527.231,W,1,12,1.0,0.0,M,0.0,M,,*74
$GPGSA,A,3,01,02,03,04,05,06,07,08,09,10,11,12,1.0,1.0,1.0*30
$GPRMC,192708.244,A,2810.522,N,01527.231,W,4304.2,057.0,310722,000.0,W*56
$GPGGA,192709.244,2811.230,N,01526.139,W,1,12,1.0,0.0,M,0.0,M,,*7A
$GPGSA,A,3,01,02,03,04,05,06,07,08,09,10,11,12,1.0,1.0,1.0*30
$GPRMC,192709.244,A,2811.230,N,01526.139,W,145894.2,066.3,310722,000.0,W*5F
$GPGGA,192710.244,2829.280,N,01444.949,W,1,12,1.0,0.0,M,0.0,M,,*78
$GPGSA,A,3,01,02,03,04,05,06,07,08,09,10,11,12,1.0,1.0,1.0*30
$GPRMC,192710.244,A,2829.280,N,01444.949,W,50880.1,047.8,310722,000.0,W*66
$GPGGA,192711.244,2839.411,N,01433.743,W,1,12,1.0,0.0,M,0.0,M,,*72
$GPGSA,A,3,01,02,03,04,05,06,07,08,09,10,11,12,1.0,1.0,1.0*30
$GPRMC,192711.244,A,2839.411,N,01433.743,W,87669.7,081.6,310722,000.0,W*6D
$GPGGA,192712.244,2843.459,N,01406.387,W,1,12,1.0,0.0,M,0.0,M,,*7A
$GPGSA,A,3,01,02,03,04,05,06,07,08,09,10,11,12,1.0,1.0,1.0*30
$GPRMC,192712.244,A,2843.459,N,01406.387,W,68124.7,073.4,310722,000.0,W*65
$GPGGA,192713.244,2849.526,N,01345.952,W,1,12,1.0,0.0,M,0.0,M,,*7A
$GPGSA,A,3,01,02,03,04,05,06,07,08,09,10,11,12,1.0,1.0,1.0*30
$GPRMC,192713.244,A,2849.526,N,01345.952,W,116306.5,088.2,310722,000.0,W*5F
$GPGGA,192714.244,2850.680,N,01309.120,W,1,12,1.0,0.0,M,0.0,M,,*7F
$GPGSA,A,3,01,02,03,04,05,06,07,08,09,10,11,12,1.0,1.0,1.0*30
$GPRMC,192714.244,A,2850.680,N,01309.120,W,391412.9,070.1,310722,000.0,W*5D
$GPGGA,192715.244,2932.289,N,01114.146,W,1,12,1.0,0.0,M,0.0,M,,*78
$GPGSA,A,3,01,02,03,04,05,06,07,08,09,10,11,12,1.0,1.0,1.0*30
$GPRMC,192715.244,A,2932.289,N,01114.146,W,217885.7,033.3,310722,000.0,W*5C
$GPGGA,192716.244,3024.820,N,01039.539,W,1,12,1.0,0.0,M,0.0,M,,*7F
$GPGSA,A,3,01,02,03,04,05,06,07,08,09,10,11,12,1.0,1.0,1.0*30
$GPRMC,192716.244,A,3024.820,N,01039.539,W,287053.7,013.4,310722,000.0,W*54
$GPGGA,192717.244,3142.898,N,01020.956,W,1,12,1.0,0.0,M,0.0,M,,*71
$GPGSA,A,3,01,02,03,04,05,06,07,08,09,10,11,12,1.0,1.0,1.0*30
$GPRMC,192717.244,A,3142.898,N,01020.956,W,311206.2,017.5,310722,000.0,W*56
$GPGGA,192718.244,3306.369,N,00954.589,W,1,12,1.0,0.0,M,0.0,M,,*7C
$GPGSA,A,3,01,02,03,04,05,06,07,08,09,10,11,12,1.0,1.0,1.0*30
$GPRMC,192718.244,A,3306.369,N,00954.589,W,350906.5,039.2,310722,000.0,W*59
$GPGGA,192719.244,3426.909,N,00848.671,W,1,12,1.0,0.0,M,0.0,M,,*7C
$GPGSA,A,3,01,02,03,04,05,06,07,08,09,10,11,12,1.0,1.0,1.0*30
$GPRMC,192719.244,A,3426.909,N,00848.671,W,289713.1,039.8,310722,000.0,W*58
$GPGGA,192720.244,3533.321,N,00753.300,W,1,12,1.0,0.0,M,0.0,M,,*75
$GPGSA,A,3,01,02,03,04,05,06,07,08,09,10,11,12,1.0,1.0,1.0*30
$GPRMC,192720.244,A,3533.321,N,00753.300,W,177696.5,335.4,310722,000.0,W*58
$GPGGA,192721.244,3619.562,N,00814.513,W,1,12,1.0,0.0,M,0.0,M,,*76
$GPGSA,A,3,01,02,03,04,05,06,07,08,09,10,11,12,1.0,1.0,1.0*30
$GPRMC,192721.244,A,3619.562,N,00814.513,W,303922.3,307.3,310722,000.0,W*5A
$GPGGA,192722.244,3717.614,N,00930.978,W,1,12,1.0,0.0,M,0.0,M,,*7E
$GPGSA,A,3,01,02,03,04,05,06,07,08,09,10,11,12,1.0,1.0,1.0*30
$GPRMC,192722.244,A,3717.614,N,00930.978,W,338750.4,342.8,310722,000.0,W*5C
$GPGGA,192723.244,3848.961,N,00959.322,W,1,12,1.0,0.0,M,0.0,M,,*7D
$GPGSA,A,3,01,02,03,04,05,06,07,08,09,10,11,12,1.0,1.0,1.0*30
$GPRMC,192723.244,A,3848.961,N,00959.322,W,253534.5,003.7,310722,000.0,W*5B
$GPGGA,192724.244,3959.249,N,00954.708,W,1,12,1.0,0.0,M,0.0,M,,*7B
$GPGSA,A,3,01,02,03,04,05,06,07,08,09,10,11,12,1.0,1.0,1.0*30
$GPRMC,192724.244,A,3959.249,N,00954.708,W,217711.7,036.4,310722,000.0,W*5F
$GPGGA,192725.244,4051.936,N,00915.817,W,1,12,1.0,0.0,M,0.0,M,,*7B
$GPGSA,A,3,01,02,03,04,05,06,07,08,09,10,11,12,1.0,1.0,1.0*30
$GPRMC,192725.244,A,4051.936,N,00915.817,W,126881.4,024.0,310722,000.0,W*5C
$GPGGA,192726.244,4125.328,N,00900.939,W,1,12,1.0,0.0,M,0.0,M,,*76
$GPGSA,A,3,01,02,03,04,05,06,07,08,09,10,11,12,1.0,1.0,1.0*30
$GPRMC,192726.244,A,4125.328,N,00900.939,W,29371.3,012.7,310722,000.0,W*6E
$GPGGA,192727.244,4133.367,N,00859.127,W,1,12,1.0,0.0,M,0.0,M,,*71
$GPGSA,A,3,01,02,03,04,05,06,07,08,09,10,11,12,1.0,1.0,1.0*30
$GPRMC,192727.244,A,4133.367,N,00859.127,W,11924.1,045.4,310722,000.0,W*6B
$GPGGA,192728.244,4136.002,N,00856.449,W,1,12,1.0,0.0,M,0.0,M,,*79
$GPGSA,A,3,01,02,03,04,05,06,07,08,09,10,11,12,1.0,1.0,1.0*30
$GPRMC,192728.244,A,4136.002,N,00856.449,W,19199.0,053.7,310722,000.0,W*60
$GPGGA,192729.244,4139.736,N,00851.361,W,1,12,1.0,0.0,M,0.0,M,,*7D
$GPGSA,A,3,01,02,03,04,05,06,07,08,09,10,11,12,1.0,1.0,1.0*30
$GPRMC,192729.244,A,4139.736,N,00851.361,W,2511.8,073.1,310722,000.0,W*56
$GPGGA,192730.244,4139.998,N,00850.495,W,1,12,1.0,0.0,M,0.0,M,,*72
$GPGSA,A,3,01,02,03,04,05,06,07,08,09,10,11,12,1.0,1.0,1.0*30
$GPRMC,192730.244,A,4139.998,N,00850.495,W,2186.6,023.5,310722,000.0,W*5C
$GPGGA,192731.244,4140.575,N,00850.244,W,1,12,1.0,0.0,M,0.0,M,,*78
$GPGSA,A,3,01,02,03,04,05,06,07,08,09,10,11,12,1.0,1.0,1.0*30
$GPRMC,192731.244,A,4140.575,N,00850.244,W,897.1,325.3,310722,000.0,W*69
$GPGGA,192732.244,4140.796,N,00850.398,W,1,12,1.0,0.0,M,0.0,M,,*74
$GPGSA,A,3,01,02,03,04,05,06,07,08,09,10,11,12,1.0,1.0,1.0*30
$GPRMC,192732.244,A,4140.796,N,00850.398,W,672.2,358.0,310722,000.0,W*6A
$GPGGA,192733.244,4140.982,N,00850.404,W,1,12,1.0,0.0,M,0.0,M,,*7C
$GPGSA,A,3,01,02,03,04,05,06,07,08,09,10,11,12,1.0,1.0,1.0*30
$GPRMC,192733.244,A,4140.982,N,00850.404,W,249.4,001.1,310722,000.0,W*66
$GPGGA,192734.244,4141.052,N,00850.403,W,1,12,1.0,0.0,M,0.0,M,,*79
$GPGSA,A,3,01,02,03,04,05,06,07,08,09,10,11,12,1.0,1.0,1.0*30
$GPRMC,192734.244,A,4141.052,N,00850.403,W,299.8,011.6,310722,000.0,W*64
$GPGGA,192735.244,4141.134,N,00850.386,W,1,12,1.0,0.0,M,0.0,M,,*73
$GPGSA,A,3,01,02,03,04,05,06,07,08,09,10,11,12,1.0,1.0,1.0*30
$GPRMC,192735.244,A,4141.134,N,00850.386,W,311.9,002.5,310722,000.0,W*6F
$GPGGA,192736.244,4141.221,N,00850.382,W,1,12,1.0,0.0,M,0.0,M,,*73
$GPGSA,A,3,01,02,03,04,05,06,07,08,09,10,11,12,1.0,1.0,1.0*30
$GPRMC,192736.244,A,4141.221,N,00850.382,W,156.8,351.6,310722,000.0,W*69
$GPGGA,192737.244,4141.264,N,00850.389,W,1,12,1.0,0.0,M,0.0,M,,*78
$GPGSA,A,3,01,02,03,04,05,06,07,08,09,10,11,12,1.0,1.0,1.0*30
$GPRMC,192737.244,A,4141.264,N,00850.389,W,105.6,303.1,310722,000.0,W*6A
$GPGGA,192738.244,4141.283,N,00850.418,W,1,12,1.0,0.0,M,0.0,M,,*71
$GPGSA,A,3,01,02,03,04,05,06,07,08,09,10,11,12,1.0,1.0,1.0*30
$GPRMC,192738.244,A,4141.283,N,00850.418,W,066.6,248.4,310722,000.0,W*6C
$GPGGA,192739.244,4141.274,N,00850.440,W,1,12,1.0,0.0,M,0.0,M,,*75
$GPGSA,A,3,01,02,03,04,05,06,07,08,09,10,11,12,1.0,1.0,1.0*30
$GPRMC,192739.244,A,4141.274,N,00850.440,W,264.3,187.0,310722,000.0,W*69
$GPGGA,192740.244,4141.201,N,00850.449,W,1,12,1.0,0.0,M,0.0,M,,*70
$GPGSA,A,3,01,02,03,04,05,06,07,08,09,10,11,12,1.0,1.0,1.0*30
$GPRMC,192740.244,A,4141.201,N,00850.449,W,894.8,183.8,310722,000.0,W*6E
$GPGGA,192741.244,4140.953,N,00850.466,W,1,12,1.0,0.0,M,0.0,M,,*71
$GPGSA,A,3,01,02,03,04,05,06,07,08,09,10,11,12,1.0,1.0,1.0*30
$GPRMC,192741.244,A,4140.953,N,00850.466,W,1420.5,181.3,310722,000.0,W*59
$GPGGA,192742.244,4140.559,N,00850.475,W,1,12,1.0,0.0,M,0.0,M,,*76
$GPGSA,A,3,01,02,03,04,05,06,07,08,09,10,11,12,1.0,1.0,1.0*30
$GPRMC,192742.244,A,4140.559,N,00850.475,W,1134.1,212.9,310722,000.0,W*59
$GPGGA,192743.244,4140.276,N,00850.659,W,1,12,1.0,0.0,M,0.0,M,,*71
$GPGSA,A,3,01,02,03,04,05,06,07,08,09,10,11,12,1.0,1.0,1.0*30
$GPRMC,192743.244,A,4140.276,N,00850.659,W,2567.8,288.6,310722,000.0,W*5A
$GPGGA,192744.244,4140.568,N,00851.529,W,1,12,1.0,0.0,M,0.0,M,,*7B
$GPGSA,A,3,01,02,03,04,05,06,07,08,09,10,11,12,1.0,1.0,1.0*30
$GPRMC,192744.244,A,4140.568,N,00851.529,W,5017.3,340.5,310722,000.0,W*58
$GPGGA,192745.244,4141.914,N,00852.008,W,1,12,1.0,0.0,M,0.0,M,,*79
$GPGSA,A,3,01,02,03,04,05,06,07,08,09,10,11,12,1.0,1.0,1.0*30
$GPRMC,192745.244,A,4141.914,N,00852.008,W,10401.0,335.5,310722,000.0,W*6C
$GPGGA,192746.244,4144.646,N,00853.258,W,1,12,1.0,0.0,M,0.0,M,,*71
$GPGSA,A,3,01,02,03,04,05,06,07,08,09,10,11,12,1.0,1.0,1.0*30
$GPRMC,192746.244,A,4144.646,N,00853.258,W,9171.1,348.4,310722,000.0,W*54
$GPGGA,192747.244,4147.163,N,00853.775,W,1,12,1.0,0.0,M,0.0,M,,*79
$GPGSA,A,3,01,02,03,04,05,06,07,08,09,10,11,12,1.0,1.0,1.0*30
$GPRMC,192747.244,A,4147.163,N,00853.775,W,14172.5,341.6,310722,000.0,W*6C
$GPGGA,192748.244,4150.981,N,00855.047,W,1,12,1.0,0.0,M,0.0,M,,*74
$GPGSA,A,3,01,02,03,04,05,06,07,08,09,10,11,12,1.0,1.0,1.0*30
$GPRMC,192748.244,A,4150.981,N,00855.047,W,11327.3,000.4,310722,000.0,W*64
$GPGGA,192749.244,4154.125,N,00855.026,W,1,12,1.0,0.0,M,0.0,M,,*70
$GPGSA,A,3,01,02,03,04,05,06,07,08,09,10,11,12,1.0,1.0,1.0*30
$GPRMC,192749.244,A,4154.125,N,00855.026,W,30072.6,357.0,310722,000.0,W*60
$GPGGA,192750.244,4202.467,N,00855.467,W,1,12,1.0,0.0,M,0.0,M,,*7A
$GPGSA,A,3,01,02,03,04,05,06,07,08,09,10,11,12,1.0,1.0,1.0*30
$GPRMC,192750.244,A,4202.467,N,00855.467,W,14323.2,001.2,310722,000.0,W*6D
$GPGGA,192751.244,4206.442,N,00855.385,W,1,12,1.0,0.0,M,0.0,M,,*73
$GPGSA,A,3,01,02,03,04,05,06,07,08,09,10,11,12,1.0,1.0,1.0*30
$GPRMC,192751.244,A,4206.442,N,00855.385,W,54369.3,330.6,310722,000.0,W*6A
$GPGGA,192752.244,4220.363,N,00903.258,W,1,12,1.0,0.0,M,0.0,M,,*73
$GPGSA,A,3,01,02,03,04,05,06,07,08,09,10,11,12,1.0,1.0,1.0*30
$GPRMC,192752.244,A,4220.363,N,00903.258,W,113373.0,319.7,310722,000.0,W*5A
$GPGGA,192753.244,4247.028,N,00925.953,W,1,12,1.0,0.0,M,0.0,M,,*7B
$GPGSA,A,3,01,02,03,04,05,06,07,08,09,10,11,12,1.0,1.0,1.0*30
$GPRMC,192753.244,A,4247.028,N,00925.953,W,96438.5,357.2,310722,000.0,W*6C
$GPGGA,192754.244,4313.781,N,00927.272,W,1,12,1.0,0.0,M,0.0,M,,*72
$GPGSA,A,3,01,02,03,04,05,06,07,08,09,10,11,12,1.0,1.0,1.0*30
$GPRMC,192754.244,A,4313.781,N,00927.272,W,78551.7,044.5,310722,000.0,W*6F
$GPGGA,192755.244,4331.509,N,00909.803,W,1,12,1.0,0.0,M,0.0,M,,*71
$GPGSA,A,3,01,02,03,04,05,06,07,08,09,10,11,12,1.0,1.0,1.0*30
$GPRMC,192755.244,A,4331.509,N,00909.803,W,180732.6,058.9,310722,000.0,W*5D
$GPGGA,192756.244,4403.627,N,00816.410,W,1,12,1.0,0.0,M,0.0,M,,*7A
$GPGSA,A,3,01,02,03,04,05,06,07,08,09,10,11,12,1.0,1.0,1.0*30
$GPRMC,192756.244,A,4403.627,N,00816.410,W,135425.9,067.0,310722,000.0,W*57
$GPGGA,192757.244,4422.759,N,00731.256,W,1,12,1.0,0.0,M,0.0,M,,*7E
$GPGSA,A,3,01,02,03,04,05,06,07,08,09,10,11,12,1.0,1.0,1.0*30
$GPRMC,192757.244,A,4422.759,N,00731.256,W,283737.4,073.5,310722,000.0,W*50
$GPGGA,192758.244,4452.998,N,00549.057,W,1,12,1.0,0.0,M,0.0,M,,*7B
$GPGSA,A,3,01,02,03,04,05,06,07,08,09,10,11,12,1.0,1.0,1.0*30
$GPRMC,192758.244,A,4452.998,N,00549.057,W,223809.9,081.6,310722,000.0,W*5E
$GPGGA,192759.244,4505.585,N,00423.034,W,1,12,1.0,0.0,M,0.0,M,,*71
$GPGSA,A,3,01,02,03,04,05,06,07,08,09,10,11,12,1.0,1.0,1.0*30
$GPRMC,192759.244,A,4505.585,N,00423.034,W,251577.8,080.7,310722,000.0,W*54
$GPGGA,192800.244,4521.360,N,00246.443,W,1,12,1.0,0.0,M,0.0,M,,*78
$GPGSA,A,3,01,02,03,04,05,06,07,08,09,10,11,12,1.0,1.0,1.0*30
$GPRMC,192800.244,A,4521.360,N,00246.443,W,120701.7,059.4,310722,000.0,W*53
$GPGGA,192801.244,4542.946,N,00209.858,W,1,12,1.0,0.0,M,0.0,M,,*7F
$GPGSA,A,3,01,02,03,04,05,06,07,08,09,10,11,12,1.0,1.0,1.0*30
$GPRMC,192801.244,A,4542.946,N,00209.858,W,81821.8,062.2,310722,000.0,W*62
$GPGGA,192802.244,4556.611,N,00143.821,W,1,12,1.0,0.0,M,0.0,M,,*77
$GPGSA,A,3,01,02,03,04,05,06,07,08,09,10,11,12,1.0,1.0,1.0*30
$GPRMC,192802.244,A,4556.611,N,00143.821,W,28693.4,064.3,310722,000.0,W*65
$GPGGA,192803.244,4601.134,N,00134.386,W,1,12,1.0,0.0,M,0.0,M,,*71
$GPGSA,A,3,01,02,03,04,05,06,07,08,09,10,11,12,1.0,1.0,1.0*30
$GPRMC,192803.244,A,4601.134,N,00134.386,W,12006.3,060.6,310722,000.0,W*66
$GPGGA,192804.244,4603.229,N,00130.652,W,1,12,1.0,0.0,M,0.0,M,,*73
$GPGSA,A,3,01,02,03,04,05,06,07,08,09,10,11,12,1.0,1.0,1.0*30
$GPRMC,192804.244,A,4603.229,N,00130.652,W,18247.6,077.1,310722,000.0,W*6D
$GPGGA,192805.244,4604.817,N,00123.720,W,1,12,1.0,0.0,M,0.0,M,,*74
$GPGSA,A,3,01,02,03,04,05,06,07,08,09,10,11,12,1.0,1.0,1.0*30
$GPRMC,192805.244,A,4604.817,N,00123.720,W,10098.8,104.4,310722,000.0,W*6C
$GPGGA,192806.244,4603.845,N,00119.929,W,1,12,1.0,0.0,M,0.0,M,,*79
$GPGSA,A,3,01,02,03,04,05,06,07,08,09,10,11,12,1.0,1.0,1.0*30
$GPRMC,192806.244,A,4603.845,N,00119.929,W,12404.6,118.5,310722,000.0,W*60
$GPGGA,192807.244,4601.729,N,00116.015,W,1,12,1.0,0.0,M,0.0,M,,*76
$GPGSA,A,3,01,02,03,04,05,06,07,08,09,10,11,12,1.0,1.0,1.0*30
$GPRMC,192807.244,A,4601.729,N,00116.015,W,10033.7,114.9,310722,000.0,W*6C
$GPGGA,192808.244,4600.184,N,00112.678,W,1,12,1.0,0.0,M,0.0,M,,*70
$GPGSA,A,3,01,02,03,04,05,06,07,08,09,10,11,12,1.0,1.0,1.0*30
$GPRMC,192808.244,A,4600.184,N,00112.678,W,4327.6,098.7,310722,000.0,W*53
$GPGGA,192809.244,4559.927,N,00110.989,W,1,12,1.0,0.0,M,0.0,M,,*7C
$GPGSA,A,3,01,02,03,04,05,06,07,08,09,10,11,12,1.0,1.0,1.0*30
$GPRMC,192809.244,A,4559.927,N,00110.989,W,527.2,066.3,310722,000.0,W*6C
$GPGGA,192810.244,4600.005,N,00110.811,W,1,12,1.0,0.0,M,0.0,M,,*72
$GPGSA,A,3,01,02,03,04,05,06,07,08,09,10,11,12,1.0,1.0,1.0*30
$GPRMC,192810.244,A,4600.005,N,00110.811,W,400.4,045.0,310722,000.0,W*62
$GPGGA,192811.244,4600.096,N,00110.719,W,1,12,1.0,0.0,M,0.0,M,,*7E
$GPGSA,A,3,01,02,03,04,05,06,07,08,09,10,11,12,1.0,1.0,1.0*30
$GPRMC,192811.244,A,4600.096,N,00110.719,W,467.8,046.5,310722,000.0,W*65
$GPGGA,192812.244,4600.201,N,00110.609,W,1,12,1.0,0.0,M,0.0,M,,*71
$GPGSA,A,3,01,02,03,04,05,06,07,08,09,10,11,12,1.0,1.0,1.0*30
$GPRMC,192812.244,A,4600.201,N,00110.609,W,690.9,023.5,310722,000.0,W*62
$GPGGA,192813.244,4600.384,N,00110.529,W,1,12,1.0,0.0,M,0.0,M,,*7D
$GPGSA,A,3,01,02,03,04,05,06,07,08,09,10,11,12,1.0,1.0,1.0*30
$GPRMC,192813.244,A,4600.384,N,00110.529,W,176.9,043.1,310722,000.0,W*63
$GPGGA,192814.244,4600.425,N,00110.490,W,1,12,1.0,0.0,M,0.0,M,,*75
$GPGSA,A,3,01,02,03,04,05,06,07,08,09,10,11,12,1.0,1.0,1.0*30
$GPRMC,192814.244,A,4600.425,N,00110.490,W,072.4,066.2,310722,000.0,W*67
$GPGGA,192815.244,4600.436,N,00110.466,W,1,12,1.0,0.0,M,0.0,M,,*7F
$GPGSA,A,3,01,02,03,04,05,06,07,08,09,10,11,12,1.0,1.0,1.0*30
$GPRMC,192815.244,A,4600.436,N,00110.466,W,072.4,066.2,310722,000.0,W*6D
